{"type":"FeatureCollection","features":[{"type":"Feature","geometry":{"type":"Point","coordinates":[121.37341,24.9452]},"properties":{"address":"三峽區國立台北大學","geom":"{\"type\":\"Point\",\"coordinates\":[121.37341,24.9452]}","h1":0.76,"h2":1.33,"h3":1.8,"id":20190605120205,"townname":"三峽區","villname":"龍恩里"}},{"type":"Feature","geometry":{"type":"Point","coordinates":[121.390254,24.951058]},"properties":{"address":"樹林區佳園路三段101巷32-1號","geom":"{\"type\":\"Point\",\"coordinates\":[121.390254,24.951058]}","h1":1.05,"h2":2.1,"h3":2.46,"id":20190527120207,"townname":"樹林區","villname":"南園里"}},{"type":"Feature","geometry":{"type":"Point","coordinates":[121.33313,24.95943]},"properties":{"address":"鶯歌區永吉國小門口","geom":"{\"type\":\"Point\",\"coordinates\":[121.33313,24.95943]}","h1":0.65,"h2":1,"h3":2.7,"id":20190605120206,"townname":"鶯歌區","villname":"永吉里"}},{"type":"Feature","geometry":{"type":"Point","coordinates":[121.51066,24.95968]},"properties":{"address":"新店區安康路二段198號","geom":"{\"type\":\"Point\",\"coordinates\":[121.51066,24.95968]}","h1":0.96,"h2":1.92,"h3":2.56,"id":20190527120211,"townname":"新店區","villname":"安昌里"}},{"type":"Feature","geometry":{"type":"Point","coordinates":[121.33288,24.96464]},"properties":{"address":"鶯歌區鶯桃路與鳳鳴路交叉口","geom":"{\"type\":\"Point\",\"coordinates\":[121.33288,24.96464]}","h1":1.58,"h2":1.83,"h3":2.2,"id":20190605120203,"townname":"鶯歌區","villname":"鳳祥里"}},{"type":"Feature","geometry":{"type":"Point","coordinates":[121.51953,24.97362]},"properties":{"address":"新店區安和路二段141號","geom":"{\"type\":\"Point\",\"coordinates\":[121.51953,24.97362]}","h1":0.7,"h2":1.3,"h3":1.7,"id":20190605120204,"townname":"新店區","villname":"安和里"}},{"type":"Feature","geometry":{"type":"Point","coordinates":[121.45348,24.97907]},"properties":{"address":"土城區明德路一段","geom":"{\"type\":\"Point\",\"coordinates\":[121.45348,24.97907]}","h1":0.585,"h2":1.17,"h3":2.49,"id":20190605120214,"townname":"土城區","villname":"柑林里"}},{"type":"Feature","geometry":{"type":"Point","coordinates":[121.50873,24.98284]},"properties":{"address":"中和區華新街109巷","geom":"{\"type\":\"Point\",\"coordinates\":[121.50873,24.98284]}","h1":0.9,"h2":1.2,"h3":1.5,"id":20190527120212,"townname":"中和區","villname":"華南里"}},{"type":"Feature","geometry":{"type":"Point","coordinates":[121.53401,24.99099]},"properties":{"address":"新店區中正路700巷61號","geom":"{\"type\":\"Point\",\"coordinates\":[121.53401,24.99099]}","h1":1.04,"h2":2.08,"h3":2.92,"id":20190605120201,"townname":"新店區","villname":"忠孝里"}},{"type":"Feature","geometry":{"type":"Point","coordinates":[121.53849,24.98741]},"properties":{"address":"新店區復興路80巷與忠孝大鵬便堤交叉口","geom":"{\"type\":\"Point\",\"coordinates\":[121.53849,24.98741]}","h1":1.48,"h2":2.96,"h3":5.05,"id":20190527120209,"townname":"新店區","villname":"忠孝里"}},{"type":"Feature","geometry":{"type":"Point","coordinates":[121.47182,24.9978]},"properties":{"address":"中和區莒光路191號","geom":"{\"type\":\"Point\",\"coordinates\":[121.47182,24.9978]}","h1":1.25,"h2":2.15,"h3":2.72,"id":20190605120202,"townname":"中和區","villname":"明穗里"}},{"type":"Feature","geometry":{"type":"Point","coordinates":[121.51362,24.99535]},"properties":{"address":"永和區中正路80號","geom":"{\"type\":\"Point\",\"coordinates\":[121.51362,24.99535]}","h1":1,"h2":1.4,"h3":2.35,"id":20190605120215,"townname":"永和區","villname":"潭安里"}},{"type":"Feature","geometry":{"type":"Point","coordinates":[121.47131,24.99911]},"properties":{"address":"中和區莒光路200號","geom":"{\"type\":\"Point\",\"coordinates\":[121.47131,24.99911]}","h1":1.6,"h2":2.5,"h3":2.9,"id":20190605120210,"townname":"中和區","villname":"自強里"}},{"type":"Feature","geometry":{"type":"Point","coordinates":[121.474533,25.001036]},"properties":{"address":"民享街86巷","geom":"{\"type\":\"Point\",\"coordinates\":[121.474533,25.001036]}","h1":1.4,"h2":2,"h3":2.6,"id":20200603120206,"townname":"中和區","villname":"民享里"}},{"type":"Feature","geometry":{"type":"Point","coordinates":[121.50939,25.00405]},"properties":{"address":"永和區水源街45巷4號","geom":"{\"type\":\"Point\",\"coordinates\":[121.50939,25.00405]}","h1":0.5,"h2":0.95,"h3":1.55,"id":20190605120207,"townname":"永和區","villname":"安和里"}},{"type":"Feature","geometry":{"type":"Point","coordinates":[121.508051,25.004473]},"properties":{"address":"永和區保平路、保平路292巷口","geom":"{\"type\":\"Point\",\"coordinates\":[121.508051,25.004473]}","h1":1.5,"h2":3,"h3":4,"id":20190527120208,"townname":"永和區","villname":"瓦?里"}},{"type":"Feature","geometry":{"type":"Point","coordinates":[121.47189,25.00583]},"properties":{"address":"中和區莒光路23號","geom":"{\"type\":\"Point\",\"coordinates\":[121.47189,25.00583]}","h1":1.275,"h2":2.55,"h3":3.19,"id":20190605120209,"townname":"中和區","villname":"德穗里"}},{"type":"Feature","geometry":{"type":"Point","coordinates":[121.514328,25.006409]},"properties":{"address":"中和區自由街、安樂路口","geom":"{\"type\":\"Point\",\"coordinates\":[121.514328,25.006409]}","h1":1.2,"h2":2.35,"h3":4.4,"id":20190605120225,"townname":"中和區","villname":"永樂里"}},{"type":"Feature","geometry":{"type":"Point","coordinates":[121.5192,25.00754]},"properties":{"address":"永和區福和路219-1號","geom":"{\"type\":\"Point\",\"coordinates\":[121.5192,25.00754]}","h1":1,"h2":2,"h3":3.2,"id":20190605120226,"townname":"永和區","villname":"永貞里"}},{"type":"Feature","geometry":{"type":"Point","coordinates":[121.518906,25.00837]},"properties":{"address":"永和區國光路16號","geom":"{\"type\":\"Point\",\"coordinates\":[121.518906,25.00837]}","h1":2.94,"h2":3.17,"h3":3.4,"id":20190605120219,"townname":"永和區","villname":"光明里"}},{"type":"Feature","geometry":{"type":"Point","coordinates":[121.481489,25.00936]},"properties":{"address":"新北市中和區中正路1167號(新北市政府警察局保安警察大隊前)","geom":"{\"type\":\"Point\",\"coordinates\":[121.481489,25.00936]}","h1":3,"h2":3.5,"h3":4.9,"id":20210416120206,"townname":"中和區","villname":"員富里"}},{"type":"Feature","geometry":{"type":"Point","coordinates":[121.441521,25.006472]},"properties":{"address":"板橋區環河西路五段","geom":"{\"type\":\"Point\",\"coordinates\":[121.441521,25.006472]}","h1":1,"h2":2,"h3":4,"id":20190605120222,"townname":"板橋區","villname":"歡園里"}},{"type":"Feature","geometry":{"type":"Point","coordinates":[121.453044,25.009045]},"properties":{"address":"南雅西路二段7巷","geom":"{\"type\":\"Point\",\"coordinates\":[121.453044,25.009045]}","h1":2.5,"h2":3,"h3":3.9,"id":20210416120201,"townname":"板橋區","villname":"光華里"}},{"type":"Feature","geometry":{"type":"Point","coordinates":[121.501083,25.00771]},"properties":{"address":"新北市永和區仁愛路352巷90號(名利橋)","geom":"{\"type\":\"Point\",\"coordinates\":[121.501083,25.00771]}","h1":4,"h2":6,"h3":8,"id":20210416120210,"townname":"永和區","villname":"保順里"}},{"type":"Feature","geometry":{"type":"Point","coordinates":[121.508719,25.011835]},"properties":{"address":"永和區仁愛路245號(新北市中和地區農會仁愛分部前面)","geom":"{\"type\":\"Point\",\"coordinates\":[121.508719,25.011835]}","h1":2,"h2":2.5,"h3":3,"id":20210416120208,"townname":"永和區","villname":"中溪里"}},{"type":"Feature","geometry":{"type":"Point","coordinates":[121.46974,25.01374]},"properties":{"address":"板橋區中山路一段277號","geom":"{\"type\":\"Point\",\"coordinates\":[121.46974,25.01374]}","h1":1.05,"h2":2.1,"h3":3.55,"id":20190605120224,"townname":"板橋區","villname":"長安里"}},{"type":"Feature","geometry":{"type":"Point","coordinates":[121.482107,25.011112]},"properties":{"address":"中和區中板路47巷19號","geom":"{\"type\":\"Point\",\"coordinates\":[121.482107,25.011112]}","h1":2,"h2":2.5,"h3":3.2,"id":20210416120205,"townname":"中和區","villname":"中原里"}},{"type":"Feature","geometry":{"type":"Point","coordinates":[121.51044,25.01737]},"properties":{"address":"永和區環河西路二段3巷3號","geom":"{\"type\":\"Point\",\"coordinates\":[121.51044,25.01737]}","h1":1.15,"h2":1.8,"h3":3.7,"id":20190527120214,"townname":"永和區","villname":"永成里"}},{"type":"Feature","geometry":{"type":"Point","coordinates":[121.453079,25.015848]},"properties":{"address":"大仁街、大智街","geom":"{\"type\":\"Point\",\"coordinates\":[121.453079,25.015848]}","h1":1,"h2":2,"h3":3,"id":20200603120207,"townname":"板橋區","villname":"香雅里"}},{"type":"Feature","geometry":{"type":"Point","coordinates":[121.41054,25.015222]},"properties":{"address":"樹林區中正路753號","geom":"{\"type\":\"Point\",\"coordinates\":[121.41054,25.015222]}","h1":0.9,"h2":1.18,"h3":2,"id":20190605120212,"townname":"樹林區","villname":"三龍里"}},{"type":"Feature","geometry":{"type":"Point","coordinates":[121.45314,25.02567]},"properties":{"address":"板橋區板橋國中操場旁儲水槽","geom":"{\"type\":\"Point\",\"coordinates\":[121.45314,25.02567]}","h1":1.8,"h2":3.1,"h3":3.85,"id":20190527120210,"townname":"板橋區","villname":"中正里"}},{"type":"Feature","geometry":{"type":"Point","coordinates":[121.45067,25.03419]},"properties":{"address":"新莊區景德路158號","geom":"{\"type\":\"Point\",\"coordinates\":[121.45067,25.03419]}","h1":0.74,"h2":1.48,"h3":2.07,"id":20190527120202,"townname":"新莊區","villname":"興漢里"}},{"type":"Feature","geometry":{"type":"Point","coordinates":[121.42856,25.04054]},"properties":{"address":"泰山區貴子路120號","geom":"{\"type\":\"Point\",\"coordinates\":[121.42856,25.04054]}","h1":0.7,"h2":1.4,"h3":1.6,"id":20190527120201,"townname":"泰山區","villname":"貴賢里"}},{"type":"Feature","geometry":{"type":"Point","coordinates":[121.446516,25.049079]},"properties":{"address":"新莊區幸福路","geom":"{\"type\":\"Point\",\"coordinates\":[121.446516,25.049079]}","h1":1.5,"h2":2,"h3":2.5,"id":20190605120228,"townname":"新莊區","villname":"中宏里"}},{"type":"Feature","geometry":{"type":"Point","coordinates":[121.49029,25.05781]},"properties":{"address":"三重區重安街13巷","geom":"{\"type\":\"Point\",\"coordinates\":[121.49029,25.05781]}","h1":0.3,"h2":0.6,"h3":0.8,"id":20190605120230,"townname":"三重區","villname":"光明里"}},{"type":"Feature","geometry":{"type":"Point","coordinates":[121.49075,25.05581]},"properties":{"address":"三重區三重高中","geom":"{\"type\":\"Point\",\"coordinates\":[121.49075,25.05581]}","h1":1.575,"h2":2.65,"h3":3.25,"id":20190605120216,"townname":"三重區","villname":"光明里"}},{"type":"Feature","geometry":{"type":"Point","coordinates":[121.44993,25.058841]},"properties":{"address":"新莊區中央路與中港路交叉路口 (宏匯廣場)","geom":"{\"type\":\"Point\",\"coordinates\":[121.44993,25.058841]}","h1":2,"h2":2.5,"h3":3.1,"id":20210416120207,"townname":"新莊區","villname":"中原里"}},{"type":"Feature","geometry":{"type":"Point","coordinates":[121.62452,25.06632]},"properties":{"address":"汐止區南陽街1巷50號之1號","geom":"{\"type\":\"Point\",\"coordinates\":[121.62452,25.06632]}","h1":0.3,"h2":0.6,"h3":2.45,"id":20190605120211,"townname":"汐止區","villname":"環河里"}},{"type":"Feature","geometry":{"type":"Point","coordinates":[121.5024,25.06646]},"properties":{"address":"長元街","geom":"{\"type\":\"Point\",\"coordinates\":[121.5024,25.06646]}","h1":1.05,"h2":2.1,"h3":2.592,"id":20190605120223,"townname":"三重區","villname":"開元里"}},{"type":"Feature","geometry":{"type":"Point","coordinates":[121.66515,25.06675]},"properties":{"address":"汐止區仁愛路205號","geom":"{\"type\":\"Point\",\"coordinates\":[121.66515,25.06675]}","h1":0.3,"h2":0.6,"h3":1.15,"id":20190605120217,"townname":"汐止區","villname":"福安里"}},{"type":"Feature","geometry":{"type":"Point","coordinates":[121.49692,25.06534]},"properties":{"address":"三重區正義北路95號","geom":"{\"type\":\"Point\",\"coordinates\":[121.49692,25.06534]}","h1":0.94,"h2":1.34,"h3":2.79,"id":20190527120220,"townname":"三重區","villname":"正義里"}},{"type":"Feature","geometry":{"type":"Point","coordinates":[121.46484,25.0625]},"properties":{"address":"新莊區化成路942巷","geom":"{\"type\":\"Point\",\"coordinates\":[121.46484,25.0625]}","h1":0.85,"h2":1.7,"h3":2.07,"id":20190527120203,"townname":"新莊區","villname":"福基里"}},{"type":"Feature","geometry":{"type":"Point","coordinates":[121.4599,25.06089]},"properties":{"address":"新莊區新北大道與五工路交叉口","geom":"{\"type\":\"Point\",\"coordinates\":[121.4599,25.06089]}","h1":1.25,"h2":2.5,"h3":2.8,"id":20190527120204,"townname":"新莊區","villname":"福基里"}},{"type":"Feature","geometry":{"type":"Point","coordinates":[121.45348,25.06059]},"properties":{"address":"新北大道三段與新知十路交叉口","geom":"{\"type\":\"Point\",\"coordinates\":[121.45348,25.06059]}","h1":2.5,"h2":3,"h3":4,"id":20210416120203,"townname":"新莊區","villname":"福基里"}},{"type":"Feature","geometry":{"type":"Point","coordinates":[121.435753,25.071293]},"properties":{"address":"成泰路一段101號","geom":"{\"type\":\"Point\",\"coordinates\":[121.435753,25.071293]}","h1":1.2,"h2":1.6,"h3":1.8,"id":20200603120201,"townname":"五股區","villname":"福德里"}},{"type":"Feature","geometry":{"type":"Point","coordinates":[121.628941,25.068655]},"properties":{"address":"金龍國小","geom":"{\"type\":\"Point\",\"coordinates\":[121.628941,25.068655]}","h1":2.5,"h2":3.5,"h3":4.6,"id":20190605120227,"townname":"汐止區","villname":"北峰里"}},{"type":"Feature","geometry":{"type":"Point","coordinates":[121.629936,25.067476]},"properties":{"address":"北峰抽水站","geom":"{\"type\":\"Point\",\"coordinates\":[121.629936,25.067476]}","h1":2.5,"h2":3,"h3":3.5,"id":20190527120213,"townname":"汐止區","villname":"北峰里"}},{"type":"Feature","geometry":{"type":"Point","coordinates":[121.47729,25.07727]},"properties":{"address":"蘆洲區永安北路一段88號","geom":"{\"type\":\"Point\",\"coordinates\":[121.47729,25.07727]}","h1":1.085,"h2":2.17,"h3":2.23,"id":20190527120217,"townname":"蘆洲區","villname":"永順里"}},{"type":"Feature","geometry":{"type":"Point","coordinates":[121.46868,25.07618]},"properties":{"address":"蘆洲區永安南路一段","geom":"{\"type\":\"Point\",\"coordinates\":[121.46868,25.07618]}","h1":1,"h2":2,"h3":3.5,"id":20190527120218,"townname":"蘆洲區","villname":"興珍里"}},{"type":"Feature","geometry":{"type":"Point","coordinates":[121.67055,25.07729]},"properties":{"address":"汐止區大同路三段110號","geom":"{\"type\":\"Point\",\"coordinates\":[121.67055,25.07729]}","h1":0.65,"h2":1.3,"h3":1.6,"id":20190605120221,"townname":"汐止區","villname":"長安里"}},{"type":"Feature","geometry":{"type":"Point","coordinates":[121.48931,25.08595]},"properties":{"address":"三重區五華街237號","geom":"{\"type\":\"Point\",\"coordinates\":[121.48931,25.08595]}","h1":0.91,"h2":1.82,"h3":2.76,"id":20190527120219,"townname":"三重區","villname":"富福里"}},{"type":"Feature","geometry":{"type":"Point","coordinates":[121.43964,25.08298]},"properties":{"address":"五股區工商路16號","geom":"{\"type\":\"Point\",\"coordinates\":[121.43964,25.08298]}","h1":2.22,"h2":2.52,"h3":3.49,"id":20190605120220,"townname":"五股區","villname":"五股里"}},{"type":"Feature","geometry":{"type":"Point","coordinates":[121.489763,25.087532]},"properties":{"address":"三信路1號(新北高中)","geom":"{\"type\":\"Point\",\"coordinates\":[121.489763,25.087532]}","h1":3,"h2":5,"h3":6,"id":20200603120203,"townname":"三重區","villname":"富貴里"}},{"type":"Feature","geometry":{"type":"Point","coordinates":[121.490146,25.087954]},"properties":{"address":"新北市三重區三信路100號(新北高中前)","geom":"{\"type\":\"Point\",\"coordinates\":[121.490146,25.087954]}","h1":1.9,"h2":2.4,"h3":2.8,"id":20210416120209,"townname":"三重區","villname":"富貴里"}},{"type":"Feature","geometry":{"type":"Point","coordinates":[121.46396,25.09203]},"properties":{"address":"蘆洲區三民路378-3號","geom":"{\"type\":\"Point\",\"coordinates\":[121.46396,25.09203]}","h1":0.735,"h2":1.47,"h3":2.6,"id":20190527120216,"townname":"蘆洲區","villname":"保新里"}},{"type":"Feature","geometry":{"type":"Point","coordinates":[121.461554,25.097098]},"properties":{"address":"蘆洲區中正路503號","geom":"{\"type\":\"Point\",\"coordinates\":[121.461554,25.097098]}","h1":0.74,"h2":1.48,"h3":2.8,"id":20190605120229,"townname":"蘆洲區","villname":"保新里"}},{"type":"Feature","geometry":{"type":"Point","coordinates":[121.45119,25.09879]},"properties":{"address":"五股區成州三路與疏洪北路交叉口","geom":"{\"type\":\"Point\",\"coordinates\":[121.45119,25.09879]}","h1":1.055,"h2":2.11,"h3":3.53,"id":20190527120205,"townname":"五股區","villname":"成州里"}},{"type":"Feature","geometry":{"type":"Point","coordinates":[121.44984,25.09935]},"properties":{"address":"五股區成州國小操場旁儲水槽","geom":"{\"type\":\"Point\",\"coordinates\":[121.44984,25.09935]}","h1":1.9,"h2":2.8,"h3":3.6,"id":20190527120215,"townname":"五股區","villname":"成州里"}},{"type":"Feature","geometry":{"type":"Point","coordinates":[121.459816,25.140322]},"properties":{"address":"民權路民富街口","geom":"{\"type\":\"Point\",\"coordinates\":[121.459816,25.140322]}","h1":1.28,"h2":2.56,"h3":3,"id":20200603120202,"townname":"淡水區","villname":"民生里"}},{"type":"Feature","geometry":{"type":"Point","coordinates":[121.459817,25.142443]},"properties":{"address":"新北市淡水區民權路3號","geom":"{\"type\":\"Point\",\"coordinates\":[121.459817,25.142443]}","h1":0.8,"h2":1,"h3":1.3,"id":20210416120202,"townname":"淡水區","villname":"民生里"}},{"type":"Feature","geometry":{"type":"Point","coordinates":[121.405266,25.149405]},"properties":{"address":"中華路二段205巷","geom":"{\"type\":\"Point\",\"coordinates\":[121.405266,25.149405]}","h1":2,"h2":4,"h3":4.5,"id":20200603120205,"townname":"八里區","villname":"舊城里"}},{"type":"Feature","geometry":{"type":"Point","coordinates":[121.45978,25.14328]},"properties":{"address":"新北市淡水區中正東路二段179號","geom":"{\"type\":\"Point\",\"coordinates\":[121.45978,25.14328]}","h1":1,"h2":1.8,"h3":2.5,"id":20190527120206,"townname":"淡水區","villname":"八勢里"}},{"type":"Feature","geometry":{"type":"Point","coordinates":[121.434683,25.158046]},"properties":{"address":"八里區龍米路二段168號」","geom":"{\"type\":\"Point\",\"coordinates\":[121.434683,25.158046]}","h1":0.9,"h2":1.8,"h3":2.26,"id":20190605120213,"townname":"八里區","villname":"米倉里"}},{"type":"Feature","geometry":{"type":"Point","coordinates":[121.457756,25.15905]},"properties":{"address":"淡金路中正東路二段5巷口","geom":"{\"type\":\"Point\",\"coordinates\":[121.457756,25.15905]}","h1":1,"h2":2,"h3":3,"id":20200603120204,"townname":"淡水區","villname":"竿蓁里"}},{"type":"Feature","geometry":{"type":"Point","coordinates":[121.44461,25.16914]},"properties":{"address":"淡水區中山路8號","geom":"{\"type\":\"Point\",\"coordinates\":[121.44461,25.16914]}","h1":0.65,"h2":1.3,"h3":1.8,"id":20190605120208,"townname":"淡水區","villname":"長庚里"}},{"type":"Feature","geometry":{"type":"Point","coordinates":[121.438961,25.170089]},"properties":{"address":"淡水區淡水老街","geom":"{\"type\":\"Point\",\"coordinates\":[121.438961,25.170089]}","h1":0.8,"h2":1,"h3":1.3,"id":20210419120001,"townname":"淡水區","villname":"民安里"}}]}